,City,Country,Max Temp,Current Description,Lat,Lng,Hotel Name
5,Grand Gaube,MU,77.38,clear sky,-20.0064,57.6608,Veranda Paul et Virginie Hotel & Spa
8,Port-Gentil,GA,80.56,broken clouds,-0.7193,8.7815,Fengshui Residence
10,Vaini,TO,75.36,broken clouds,-21.2,-175.2,Keleti Beach Resort
13,Lorengau,PG,83.64,broken clouds,-2.0226,147.2712,Lorengau Harbourside Hotel
17,Faya,SA,77.52,broken clouds,18.3851,42.4509,مقبرة ال مجمل
23,Kapaa,US,80.58,light rain,22.0752,-159.319,Sheraton Kauai Coconut Beach Resort
39,Aksu,CN,79.03,overcast clouds,41.1231,80.2644,Pudong Holiday Hotel
40,Fitii,PF,79.95,light rain,-16.7333,-151.0333,Maitai Lapita Village Huahine
42,Casper,US,77.5,clear sky,42.8666,-106.3131,Ramkota Hotel
43,Turinsk,RU,78.46,broken clouds,58.0458,63.696,hotel Arthur
44,San Patricio,US,85.84,clear sky,28.017,-97.5169,"Motel 6 Sinton, TX"
45,Saint-Georges,GD,80.28,few clouds,12.0564,-61.7485,Radisson Grenada Beach Resort
51,Atuona,PF,79.93,few clouds,-9.8,-139.0333,Villa Enata
52,Nalgonda,IN,88.59,overcast clouds,17.05,79.2667,Sai Krishna Residency
53,Los Algarrobos,PA,78.8,overcast clouds,8.5,-82.4333,Waterfall Hostel
54,Butaritari,KI,82.74,light rain,3.0707,172.7902,Isles Sunset Lodge
56,Abaetetuba,BR,77.04,scattered clouds,-1.7181,-48.8825,Hotel Joanayna
59,Krasnoselkup,RU,76.24,broken clouds,65.7,82.4667,Krasnosel'kupnefteprodukt
60,Oktyabrskiy,RU,78.82,broken clouds,54.4815,53.471,Уязы-Тау гостиница
63,Axim,GH,77.65,light rain,4.8699,-2.2405,AXIM BEACH RESORT AND SPA
64,Mahebourg,MU,77.25,scattered clouds,-20.4081,57.7,Shandrani Beachcomber Resort & Spa
66,Fort-Shevchenko,KZ,82.72,clear sky,44.5086,50.263,Oasis hotel Bautino
71,Dingle,PH,89.82,light rain,10.9995,122.6711,SEGAYA PROPERTY
73,Thoen,TH,77.14,overcast clouds,17.6129,99.2161,Nakornthoen Hotel
78,Bathsheba,BB,81.21,few clouds,13.2167,-59.5167,Atlantis Hotel
79,Tecoanapa,MX,77.72,overcast clouds,16.5167,-98.75,Hotel Manglares
80,Mahibadhoo,MV,84.02,broken clouds,3.7833,72.9667,Omadhoo Inn
83,Kavieng,PG,84.06,light rain,-2.5744,150.7967,Nusa Island Retreat
92,Sakakah,SA,81.97,clear sky,29.9697,40.2064,Fakhamat Al Orjoana Apartment
93,Port Blair,IN,85.3,overcast clouds,11.6667,92.75,"Welcomhotel By ITC Hotels, Bay Island, Port Blair"
96,Grand-Lahou,CI,76.48,light rain,5.1367,-5.0242,Hotel Beatitude de Grand Lahou
98,Hobyo,SO,81.32,overcast clouds,5.3505,48.5268,Halane Hotel and Restaurent
112,Juegang,CN,75.4,overcast clouds,32.3174,121.1855,Rudong Y Hotel
117,Cockburn Town,TC,80.19,few clouds,21.4612,-71.1419,Osprey Beach Hotel
124,Kavaratti,IN,83.3,overcast clouds,10.5669,72.642,Hotels in Lakshadweep Islands
125,Cairns,AU,88.07,scattered clouds,-16.9167,145.7667,Mantra Trilogy Cairns
129,Fuxin,CN,81.46,overcast clouds,42.0156,121.6589,Xinya International Hotel
130,College Station,US,75.42,clear sky,30.628,-96.3344,Homewood Suites by Hilton College Station
134,Jalu,LY,77.11,clear sky,29.0331,21.5482,صاحبة الفخامة
136,Harper,LR,76.86,broken clouds,4.375,-7.7169,Screensaver
138,Meulaboh,ID,85.93,overcast clouds,4.1363,96.1285,Kost Pria
141,Shafter,US,82.87,overcast clouds,35.5005,-119.2718,Mucci’s
143,Xuddur,SO,77.77,overcast clouds,4.1213,43.8894,Banjanay Hotel
146,Cabo San Lucas,MX,86.81,broken clouds,22.8909,-109.9124,Hotel Tesoro Los Cabos
159,Cananea,MX,85.78,clear sky,30.95,-110.3,Casas Montoya
162,Suriapet,IN,83.41,overcast clouds,17.15,79.6167,OYO 45679 Hotel Tirumala Grand
168,Hithadhoo,MV,83.61,few clouds,-0.6,73.0833,Scoop Guest House
170,Naze,JP,86.92,overcast clouds,28.3667,129.4833,奄美ポートタワーホテル
173,Solnechnyy,RU,83.66,overcast clouds,50.7214,136.6319,Hotel complex Pastoral
176,Great Bend,US,79.03,clear sky,38.3645,-98.7648,Best Western Angus Inn
179,Balkhash,KZ,81.21,clear sky,46.844,74.9804,Family
183,Puerto Escondido,MX,78.91,overcast clouds,15.85,-97.0667,Aldea del Bazar Hotel and Spa
185,Katsuura,JP,78.24,light rain,35.1333,140.3,Katsuura Hotel Mikazuki
187,Daru,PG,80.67,scattered clouds,-9.0763,143.2092,Daru Lodge
191,Tual,ID,80.89,broken clouds,-5.6667,132.75,Grand Vilia Hotel
192,Mudbidri,IN,82.02,mist,13.0833,74.9833,Hotel Navami Comforts
196,Faanui,PF,80.49,light rain,-16.4833,-151.75,Bora-Bora Pearl Beach Resort & Spa
202,Atambua,ID,83.8,scattered clouds,-9.1061,124.8925,Pastori 1 Jemaat Polycarpus
207,Mogadishu,SO,80.33,overcast clouds,2.0371,45.3438,Hotel Juba
209,Tutoia,BR,76.95,few clouds,-2.7619,-42.2744,Pousada Guará's
210,Sinnamary,GF,77.41,overcast clouds,5.3833,-52.95,ALETHEIA Appartement Sinnamary
214,Georgetown,MY,87.75,few clouds,5.4112,100.3354,Cititel Penang
218,La Ronge,CA,77.22,overcast clouds,55.1001,-105.2842,Northland Motor Hotel
219,Atar,MR,86.56,clear sky,20.5169,-13.0499,Oumou Elghoura
221,Bubaque,GW,80.17,overcast clouds,11.2833,-15.8333,"Casa Dora, Bubaque"
225,Seoul,KR,85.44,clear sky,37.5683,126.9778,Lotte Hotel Seoul
227,Jalpa,MX,75.0,overcast clouds,21.6333,-102.9667,"Estacionamiento ""El Nogal"""
233,Saint-Joseph,RE,77.36,light rain,-21.3667,55.6167,"""Plantation Bed and Breakfast"
235,Boyolangu,ID,85.14,overcast clouds,-8.1181,111.8935,Yos ega cv
236,San Policarpo,PH,86.43,broken clouds,12.1791,125.5072,JM Lodge
247,Kloulklubed,PW,84.7,overcast clouds,7.0419,134.2556,Storyboard Beach Resort
248,Alexandria,EG,75.16,scattered clouds,31.2156,29.9553,Royal Crown Hotel
249,Bairiki,KI,82.4,light rain,1.3292,172.9752,Tarawa Boutique Hotel
250,College,US,82.38,few clouds,64.8569,-147.8028,Pike's Waterfront Lodge
252,Sola,VU,81.3,broken clouds,-13.8833,167.55,Leumerus Bungalows
257,Quatre Cocos,MU,77.09,clear sky,-20.2078,57.7625,Emeraude Beach Attitude Hotel
259,Laguna,US,78.76,clear sky,38.421,-121.4238,"Holiday Inn Express & Suites Elk Grove Central - Hwy 99, an IHG Hotel"
261,Fairbanks,US,82.4,clear sky,64.8378,-147.7164,Westmark Fairbanks Hotel & Conference Center
266,Longjiang,CN,82.17,overcast clouds,47.3303,123.1836,Education Hostel
269,Samarai,PG,81.01,scattered clouds,-10.6167,150.6667,Nuli Sapi
270,Noumea,NC,77.0,broken clouds,-22.2763,166.4572,Hôtel Le Lagon
273,Shirgaon,IN,78.82,broken clouds,19.7,72.7,"Samarth Krupa Farm, Palghar"
275,Korla,CN,79.2,overcast clouds,41.7597,86.1469,Gulisitan Hotel
276,Bambous Virieux,MU,77.22,scattered clouds,-20.3428,57.7575,Casa Tia Villa
278,Salalah,OM,84.29,broken clouds,17.0151,54.0924,HAMDAN PLAZA HOTEL SALALAH
282,Gizo,SB,83.73,scattered clouds,-8.103,156.8419,Imagination Island
287,Pucallpa,PE,75.69,overcast clouds,-8.3791,-74.5539,Hospedaje Komby
288,Green River,US,78.19,overcast clouds,41.5286,-109.4662,Hampton Inn & Suites Green River
291,Ojus,US,77.0,few clouds,25.9484,-80.1506,Courtyard by Marriott Miami Aventura Mall
293,Poum,NC,75.38,few clouds,-20.2333,164.0167,Gîte kajeon
298,Biltine,TD,88.99,overcast clouds,14.5333,20.9167,Hôtel Trois Étoiles de Biltine
301,Pedernales,DO,79.72,clear sky,18.0384,-71.744,Hotel Costa Marina
305,Coro,VE,77.14,overcast clouds,11.4045,-69.6734,Federal
307,Pontianak,ID,89.58,broken clouds,-0.0333,109.3333,Aston Pontianak Hotel & Convention Center
310,Pemangkat,ID,85.33,broken clouds,1.1667,108.9667,Ramah Kost KITA
312,Komsomolskiy,UZ,81.82,clear sky,40.4272,71.7189,Ikathouse
315,Atbasar,KZ,87.04,overcast clouds,51.8,68.3333,"The Ritz-Carlton, Astana"
319,Cap Malheureux,MU,77.47,clear sky,-19.9842,57.6142,Pereybere Hotel & Spa
321,Segou,ML,81.28,overcast clouds,13.4317,-6.2157,Comme chez soi
327,Madang,PG,82.89,light rain,-5.2246,145.7966,Comfort Inn Hotel
329,Najran,SA,86.65,scattered clouds,17.4924,44.1277,محمد هادي ال فطيح
332,Saint-Philippe,RE,78.35,light rain,-21.3585,55.7679,"Chambres d'hôte ""La Trinité"""
337,Oranjestad,AW,80.55,few clouds,12.524,-70.027,Divi Village Golf & Beach Resort
338,Aligudarz,IR,86.22,clear sky,33.4006,49.6949,کوچه شهید محمد جواد رشیدی
340,Wajir,KE,77.85,scattered clouds,1.7471,40.0573,Al-bustan Hotel And Restaurant.
347,Port Moresby,PG,87.22,haze,-9.4431,147.1797,Lamana Hotel
349,Veraval,IN,87.01,overcast clouds,20.9,70.3667,Lords Inn Somnath
351,Fuchu,JP,79.66,broken clouds,35.6667,139.4833,Hotel Sunlight
353,Aneho,TG,79.0,overcast clouds,6.2333,1.6,Hotel La Linette
355,Kendari,ID,83.7,moderate rain,-3.945,122.4989,Hotel Wixel
361,Matara,LK,85.77,overcast clouds,5.9485,80.5353,Amaloh Boutique Resort
366,Padang,ID,84.25,overcast clouds,-0.9492,100.3543,Mercure Padang
367,Ternate,ID,78.8,overcast clouds,0.8,127.4,Grand Dafam Bela Ternate
368,Tagusao,PH,88.12,few clouds,9.1924,117.8141,Toledo
374,Bocas Del Toro,PA,79.07,overcast clouds,9.3333,-82.25,Hotel Bocas del Toro
377,Bengkulu,ID,80.06,overcast clouds,-3.8004,102.2655,Grage Hotel Bengkulu
381,Takoradi,GH,76.82,moderate rain,4.8845,-1.7554,Raybow International Hotel
382,Souillac,MU,77.36,scattered clouds,-20.5167,57.5167,Shanti Maurice Resort & Spa
386,Loa Janan,ID,83.8,overcast clouds,-0.583,117.095,Pondok hijau 2A
390,Sibolga,ID,86.18,overcast clouds,1.7427,98.7792,Hotel Syariah CN Darussalam
392,Aswan,EG,87.01,clear sky,24.0934,32.907,Nuba Nile
393,Hami,CN,80.91,scattered clouds,42.8,93.45,Laoyutang Resort
394,Boueni,YT,82.38,scattered clouds,-12.9025,45.0761,The feet in water
400,Jhargram,IN,86.11,heavy intensity rain,22.45,86.9833,Sarada Hotel
403,San Remigio,PH,87.53,overcast clouds,11.0809,123.9381,San Remigio Cultural Center and Leisure
404,Kununurra,AU,89.58,few clouds,-15.7667,128.7333,Hotel Kununurra
405,Lufilufi,WS,76.78,moderate rain,-13.8745,-171.5986,Leuaina Beach Resort and Spa
412,Garowe,SO,82.67,overcast clouds,8.4054,48.4845,Curubo Hotel
413,Macau,MO,89.8,scattered clouds,22.2006,113.5461,Grand Emperor Hotel
418,Nenjiang,CN,78.91,light rain,49.1833,125.2167,Nenjiang Apartment
419,Mapimi,MX,77.18,scattered clouds,25.8167,-103.85,Propiedad Lldm
424,Ust-Ishim,RU,78.03,scattered clouds,57.6935,71.1665,"Velichko T.p., Gostinitsa"
429,Meadow Lake,US,85.48,overcast clouds,34.8014,-106.5436,JKL Inc. R.V Park and Storage
430,Tezu,IN,82.08,overcast clouds,27.9167,96.1667,Circuit House
431,Waw,SS,77.5,broken clouds,7.7029,27.9953,Universal Gab Hotel
435,Hasaki,JP,79.29,overcast clouds,35.7333,140.8333,Hotel Sunrise Choshi
438,Kirakira,SB,82.87,broken clouds,-10.4544,161.9205,SanBiz Lodge
439,Kushima,JP,78.31,overcast clouds,31.4583,131.2333,Hanaoka
441,Wahiawa,US,77.32,overcast clouds,21.5028,-158.0236,Aloha Wahiawa
442,Kismayo,SO,80.65,overcast clouds,-0.3582,42.5454,Agan-Hotel
443,Pallasovka,RU,77.27,few clouds,50.05,46.8833,"Hotel ""Natalia"""
446,Morgan City,US,77.0,mist,29.6994,-91.2068,Hampton Inn & Suites Morgan City
449,Guamuchil,MX,83.75,broken clouds,25.4667,-108.1,Hotel Heredia
450,Keti Bandar,PK,88.21,overcast clouds,24.1447,67.4497,Haji laloo memon house
453,Labuhan,ID,85.35,broken clouds,-6.8844,112.2051,PT PPI Lamongan Tambak C
456,Neiafu,TO,79.48,broken clouds,-18.65,-173.9833,Mystic Sands Beachfront Accommodation
462,Riohacha,CO,79.74,overcast clouds,11.5444,-72.9072,Hotel Taroa
464,Buala,SB,83.34,clear sky,-8.145,159.5921,Maringe Lagoon Lodge
466,Vung Tau,VN,86.56,broken clouds,10.346,107.0843,Green hotel
468,Shahpur,IN,77.59,overcast clouds,16.7,76.8333,Sai Deluxe Shahapur
469,Kathmandu,NP,75.42,overcast clouds,27.7167,85.3167,Hotel Shanker Kathmandu
470,Basco,PH,84.22,scattered clouds,20.4487,121.9702,Nathaniel's Lodge
474,Abeche,TD,87.04,broken clouds,13.8292,20.8324,Assaleh Hamdan Haroune
475,Juybar,IR,84.36,clear sky,36.6412,52.9124,مجتمع مسکونی آرامیس ۲
479,Helong,CN,80.1,few clouds,42.5397,128.9972,Helong Hotel
483,Kieta,PG,82.49,light rain,-6.2167,155.6333,Uruna Bay Retreat
486,Male,MV,87.75,broken clouds,4.1748,73.5089,Hotel Octave Maldives
489,Tautira,PF,80.62,light rain,-17.7333,-149.15,Pension Oaoa
495,Ujjain,IN,86.88,scattered clouds,23.1833,75.7667,SPOT ON 69320 Hotel New Neha Palace
500,Isangel,VU,82.51,scattered clouds,-19.55,169.2667,Tanna Lodge
502,Barela,IN,77.81,haze,23.1,80.05,GRKIST Boys Hostel
503,Mnogovershinnyy,RU,80.8,broken clouds,53.9353,139.9242,Kvartsevaya Sopka
504,Itarema,BR,75.0,few clouds,-2.9248,-39.9167,"Sea Lounge! Bar, Club & Restaurant"
511,Dorado,PR,80.94,overcast clouds,18.4588,-66.2677,Embassy Suites by Hilton Dorado del Mar Beach Resort
513,Boa Vista,BR,75.18,light rain,2.8197,-60.6733,Aipana Plaza Hotel
515,Marsh Harbour,BS,81.12,overcast clouds,26.5412,-77.0636,Abaco Beach Resort
516,Mangan,IN,86.2,overcast clouds,27.5167,88.5333,Hotel Mout View
519,Vanimo,PG,83.64,overcast clouds,-2.6741,141.3028,Vahmoneh Lodge Vanimo
521,Lazaro Cardenas,MX,80.49,overcast clouds,17.9583,-102.2,quinta antigua
523,Puerto Madero,MX,78.58,overcast clouds,14.7208,-92.4215,Hotel La Central
524,Dezhou,CN,85.73,overcast clouds,37.4486,116.2925,Zhongtai International Hotel
526,Mumford,GH,76.57,moderate rain,5.2618,-0.759,Spanish Villa
535,Bijie,CN,80.47,overcast clouds,27.3125,105.2942,Four Points by Sheraton Bijie
541,Saint-Pierre,RE,78.44,moderate rain,-21.3393,55.4781,Lindsey Hôtel
542,Ranong,TH,87.73,overcast clouds,9.9658,98.6348,Tinidee Hotel@Ranong
544,Sawakin,SD,89.49,broken clouds,19.1059,37.3321,فندق الدويم
550,Palamos,ES,77.31,broken clouds,41.8484,3.1291,Hotel Aubi
555,Avarua,CK,75.25,light rain,-21.2078,-159.775,Paradise Inn
557,Arak,IR,79.56,clear sky,34.0917,49.6892,خانه سازمانهای غیر دولتی استان مرکزی
563,Marawi,PH,75.78,broken clouds,7.9986,124.2928,Derogongan Residence
565,Nishihara,JP,89.26,broken clouds,26.1842,127.7558,Minshuku Agaihama
570,Lamar,US,78.71,clear sky,33.6668,-95.5836,Kings Inn Paris TX
571,Tambilil,PH,89.49,overcast clouds,5.9622,124.6697,Wilfredo Sotto Home
572,Waddan,LY,75.18,clear sky,29.1614,16.139,محل الشريف محمد العايب
573,Bowen,AU,79.02,scattered clouds,-20.0167,148.2333,Castle Motor Lodge Motel
578,Gunjur,GM,77.07,scattered clouds,13.2019,-16.7339,Kuba Lodge
583,Port Keats,AU,84.74,clear sky,-14.25,129.55,TDC Village (Hundred Man Camp)
587,Tura,IN,87.01,broken clouds,25.5198,90.2201,Hotel RIKMAN Continental
588,Damghan,IR,86.49,clear sky,36.1683,54.348,خوابگاه اساتيد دانشگاه دامغان
590,Culebra,PR,82.44,overcast clouds,18.303,-65.301,Palmetto Guesthouse
592,Rosetta,EG,75.02,clear sky,31.4044,30.4164,Green Valley
597,Emerald,AU,77.34,scattered clouds,-23.5333,148.1667,The Irish Village
598,The Valley,AI,82.26,overcast clouds,18.217,-63.0578,CeBlue Villas & Beach Resort
610,Kamaishi,JP,77.95,scattered clouds,39.2667,141.8833,Hotel Route Inn Kamaishi
611,Punta,PH,86.34,light rain,8.9897,125.34,Vyjannex boarding house
612,Kailua,US,80.58,light rain,21.4022,-157.7394,Sheffield House Bed & Breakfast
613,Xam Nua,LA,84.52,overcast clouds,20.4197,104.0439,Xee Wang Guesthouse
616,Tahmek,MX,75.16,overcast clouds,20.8833,-89.2667,Hacienda San Jose Poniente
618,Labuan,MY,89.96,few clouds,5.2767,115.2417,Tiara Labuan Hotel
620,Singaraja,ID,84.6,scattered clouds,-8.112,115.0882,Puri Bagus Lovina Resort
629,Acajutla,SV,78.8,light rain,13.5928,-89.8275,asi es
630,Mandera,KE,80.78,broken clouds,3.9366,41.867,Kornesh Hotel and Lodging
634,Honiara,SB,83.82,broken clouds,-9.4333,159.95,Heritage Park Hotel
635,Takanosu,JP,81.36,scattered clouds,40.2219,140.3694,Hotel New Matsuo
637,Lawton,US,79.27,clear sky,34.6087,-98.3903,Holiday Inn Express & Suites Lawton-Fort Sill
648,Encheng,CN,88.97,overcast clouds,22.1839,112.3026,Pinghu Hostel
654,Narayanpet,IN,77.77,overcast clouds,16.7333,77.5,SRI VENKATA SAI HARDWERE AND CEMENT
666,Biak,ID,81.12,overcast clouds,-0.9131,122.8766,Penginapan Kim
677,Stillwater,US,79.88,scattered clouds,36.1156,-97.0584,Hampton Inn & Suites Stillwater
682,Derzhavinsk,KZ,88.7,few clouds,51.1,66.3167,Ooo.khim Baza
688,Vinukonda,IN,89.85,overcast clouds,16.05,79.75,VLS Residency
690,Palompon,PH,87.1,overcast clouds,11.0508,124.3843,Claudio A. Chiong Bed & Bath
694,Kutum,SD,82.53,overcast clouds,14.2,24.6667,Dibbo areaمنطقة دبو
695,Tarakan,ID,83.7,scattered clouds,3.3,117.6333,RedDoorz Syariah near Taman Berlabuh Tarakan
696,Baghdad,IQ,87.71,clear sky,33.3406,44.4009,Baghdad Hotel
698,Sabang,ID,83.93,overcast clouds,5.8933,95.3214,Hotel Citra
700,Fujin,CN,84.92,broken clouds,47.26,132.0322,Xilong Hotel Fujin Shop
